[{"address":"76 9th Ave","category_ids":[342],"category_labels":[["Social","Food and Dining","Cafes, Coffee and Tea Houses"]],"chain_id":"ab4c54c0-d68a-012e-5619-003048cad9da","chain_name":"Starbucks","country":"us","factual_id":"4e230b9a-becd-44da-a768-a52f6ae7ca05","hours":{"sunday":[["6:00","22:00"]],"saturday":[["6:00","22:00"]],"tuesday":[["5:30","22:00"]],"friday":[["5:30","22:00"]],"thursday":[["5:30","22:00"]],"wednesday":[["5:30","22:00"]],"monday":[["5:30","22:00"]]},"hours_display":"Mon-Fri 5:30 AM-10:00 PM; Sat-Sun 6:00 AM-10:00 PM","latitude":40.741662,"locality":"New York","longitude":-74.004694,"name":"Starbucks","neighborhood":["Downtown","Meat Packing District","West Village"],"postcode":"10011","region":"NY","tel":"(646) 230-7145","website":"http://www.starbucks.com"},{"address":"424 Park Ave S","address_extended":"Frnt 1","category_ids":[342],"category_labels":[["Social","Food and Dining","Cafes, Coffee and Tea Houses"]],"chain_id":"ab4c54c0-d68a-012e-5619-003048cad9da","chain_name":"Starbucks","country":"us","email":"info@starbucks.com","factual_id":"2087f506-fcf5-4c1d-b4ca-13bb2eac0b10","fax":"(281) 890-0695","hours":{"sunday":[["6:30","22:00"]],"saturday":[["6:30","22:00"]],"tuesday":[["6:00","22:00"]],"friday":[["6:00","22:00"]],"thursday":[["6:00","22:00"]],"wednesday":[["6:00","22:00"]],"monday":[["6:00","22:00"]]},"hours_display":"Mon-Fri 6:00 AM-10:00 PM; Sat-Sun 6:30 AM-10:00 PM","latitude":40.744164,"locality":"New York","longitude":-73.983712,"name":"Starbucks","neighborhood":["Union Square","Murray Hill","Midtown"],"postcode":"10016","region":"NY","tel":"(212) 725-0637","website":"http://www.starbucks.com"},{"address":"1841 Broadway","address_extended":"Frnt 2","category_ids":[342],"category_labels":[["Social","Food and Dining","Cafes, Coffee and Tea Houses"]],"chain_id":"ab4c54c0-d68a-012e-5619-003048cad9da","chain_name":"Starbucks","country":"us","email":"info@starbucks.com","factual_id":"7f236b6d-9e20-4db0-9fe0-023e5849923d","fax":"(303) 863-7747","hours":{"sunday":[["00:00","1:00"],["5:00","23:59"]],"saturday":[["00:00","1:00"],["5:00","23:59"]],"tuesday":[["00:00","1:00"],["5:00","23:59"]],"friday":[["00:00","1:00"],["5:00","23:59"]],"thursday":[["00:00","1:00"],["5:00","23:59"]],"wednesday":[["00:00","1:00"],["5:00","23:59"]],"monday":[["00:00","1:00"],["5:00","23:59"]]},"hours_display":"Open Daily 12:00 AM-1:00 AM, 5:00 AM-11:59 PM","latitude":40.769202,"locality":"New York","longitude":-73.982345,"name":"Starbucks","neighborhood":["Hell's Kitchen","Midtown West","Upper West Side"],"postcode":"10023","region":"NY","tel":"(212) 307-0162","website":"http://www.starbucks.com"},{"address":"494 8th Ave","category_ids":[342],"category_labels":[["Social","Food and Dining","Cafes, Coffee and Tea Houses"]],"chain_id":"ab4c54c0-d68a-012e-5619-003048cad9da","chain_name":"Starbucks","country":"us","factual_id":"7cfaa11a-6bce-4158-b1d2-016a46c3a2d8","fax":"(303) 863-7747","hours":{"sunday":[["6:30","22:00"]],"saturday":[["6:30","22:00"]],"tuesday":[["5:30","23:00"]],"friday":[["5:30","23:00"]],"thursday":[["5:30","23:00"]],"wednesday":[["5:30","23:00"]],"monday":[["5:30","23:00"]]},"hours_display":"Mon-Fri 5:30 AM-11:00 PM; Sat-Sun 6:30 AM-10:00 PM","latitude":40.752694,"locality":"New York","longitude":-73.992842,"name":"Starbucks","neighborhood":["Midtown West","Garment District","Midtown"],"postcode":"10001","region":"NY","tel":"(212) 947-3860","website":"http://www.starbucks.com"},{"address":"14 W 23rd St","address_extended":"Frnt 1","category_ids":[342],"category_labels":[["Social","Food and Dining","Cafes, Coffee and Tea Houses"]],"chain_id":"ab4c54c0-d68a-012e-5619-003048cad9da","chain_name":"Starbucks","country":"us","email":"info@starbucks.com","factual_id":"3c630434-8913-451e-bbfb-5e7017f8f786","hours":{"sunday":[["7:00","21:00"]],"saturday":[["7:00","22:00"]],"tuesday":[["5:30","22:00"]],"friday":[["5:30","22:00"]],"thursday":[["5:30","22:00"]],"wednesday":[["5:30","22:00"]],"monday":[["5:30","22:00"]]},"hours_display":"Mon-Fri 5:30 AM-10:00 PM; Sat 7:00 AM-10:00 PM; Sun 7:00 AM-9:00 PM","latitude":40.741637,"locality":"New York","longitude":-73.990353,"name":"Starbucks","neighborhood":["Rose Hill","Gramercy-Flatiron","Chelsea"],"postcode":"10010","region":"NY","tel":"(212) 367-2050","website":"http://www.starbucks.com"},{"address":"10 Union Sq E","category_ids":[342],"category_labels":[["Social","Food and Dining","Cafes, Coffee and Tea Houses"]],"chain_id":"ab4c54c0-d68a-012e-5619-003048cad9da","chain_name":"Starbucks","country":"us","email":"info@starbucks.com","factual_id":"b61e7d76-2034-4dc2-8843-1d1b7aa8ed1d","fax":"(708) 409-9686","hours":{"sunday":[["5:30","23:59"]],"saturday":[["5:30","23:59"]],"tuesday":[["5:30","23:59"]],"friday":[["5:30","23:59"]],"thursday":[["5:30","23:59"]],"wednesday":[["5:30","23:59"]],"monday":[["5:30","23:59"]]},"hours_display":"Open Daily 5:30 AM-11:59 PM","latitude":40.734874,"locality":"New York","longitude":-73.989976,"name":"Starbucks","neighborhood":["Gramercy-Flatiron","Downtown","Union Square"],"postcode":"10003","region":"NY","tel":"(212) 982-8426","website":"http://www.starbucks.com"},{"address":"2045 Broadway","category_ids":[342],"category_labels":[["Social","Food and Dining","Cafes, Coffee and Tea Houses"]],"chain_id":"ab4c54c0-d68a-012e-5619-003048cad9da","chain_name":"Starbucks","country":"us","factual_id":"0e42429d-03ca-4af9-aeb8-8f195c8bef3b","fax":"(618) 942-5779","hours":{"sunday":[["6:00","23:00"]],"saturday":[["6:00","22:30"]],"tuesday":[["5:30","23:00"]],"friday":[["6:00","23:59"]],"thursday":[["5:30","23:00"]],"wednesday":[["5:30","23:00"]],"monday":[["5:30","23:00"]]},"hours_display":"Mon-Thu 5:30 AM-11:00 PM; Fri 6:00 AM-11:59 PM; Sat 6:00 AM-10:30 PM; Sun 6:00 AM-11:00 PM","latitude":40.77138,"locality":"New York","longitude":-73.982356,"name":"Starbucks","neighborhood":["Upper West Side","Lincoln Square","West Side"],"postcode":"10023","region":"NY","tel":"(212) 496-1551","website":"http://www.starbucks.com"},{"address":"1889 Broadway","category_ids":[342],"category_labels":[["Social","Food and Dining","Cafes, Coffee and Tea Houses"]],"chain_id":"ab4c54c0-d68a-012e-5619-003048cad9da","chain_name":"Starbucks","country":"us","email":"info@starbucks.com","factual_id":"1f6513f6-946d-4e86-9dfc-67665c8ef7fa","hours":{"sunday":[["6:00","23:00"]],"saturday":[["6:00","23:59"]],"tuesday":[["5:30","23:59"]],"friday":[["5:30","23:59"]],"thursday":[["5:30","23:59"]],"wednesday":[["5:30","23:59"]],"monday":[["5:30","23:59"]]},"hours_display":"Mon-Fri 5:30 AM-11:59 PM; Sat 6:00 AM-11:59 PM; Sun 6:00 AM-11:00 PM","latitude":40.771373,"locality":"New York","longitude":-73.982488,"name":"Starbucks","neighborhood":["Lincoln Square","San Juan Hill","Midtown"],"postcode":"10023","region":"NY","tel":"(212) 245-1362","website":"http://www.starbucks.com"},{"address":"600 8th Ave","address_extended":"Frnt 1","category_ids":[342],"category_labels":[["Social","Food and Dining","Cafes, Coffee and Tea Houses"]],"chain_id":"ab4c54c0-d68a-012e-5619-003048cad9da","chain_name":"Starbucks","country":"us","factual_id":"f84bbf79-9a4f-4627-b75a-9409a9ca00df","fax":"(303) 863-7747","hours":{"sunday":[["11:00","20:30"]],"saturday":[["10:00","21:30"]],"tuesday":[["8:00","21:30"]],"friday":[["8:00","21:30"]],"thursday":[["8:00","21:30"]],"wednesday":[["8:00","21:30"]],"monday":[["8:00","21:30"]]},"hours_display":"Mon-Fri 8:00 AM-9:30 PM; Sat 10:00 AM-9:30 PM; Sun 11:00 AM-8:30 PM","latitude":40.755364,"locality":"New York","longitude":-73.990854,"name":"Starbucks","neighborhood":["Midtown West","Theatre District","Midtown"],"postcode":"10018","region":"NY","tel":"(212) 997-7341","website":"http://www.starbucks.com"},{"address":"2 Columbus Ave","address_extended":"Frnt 3","category_ids":[342],"category_labels":[["Social","Food and Dining","Cafes, Coffee and Tea Houses"]],"chain_id":"ab4c54c0-d68a-012e-5619-003048cad9da","chain_name":"Starbucks","country":"us","factual_id":"0ca1cdd0-cd40-012e-5616-003048cad9da","fax":"(281) 890-0695","hours":{"sunday":[["6:00","22:00"]],"saturday":[["6:00","23:00"]],"tuesday":[["5:30","23:00"]],"friday":[["5:30","23:00"]],"thursday":[["5:30","23:00"]],"wednesday":[["5:30","23:00"]],"monday":[["5:30","23:00"]]},"hours_display":"Mon-Fri 5:30 AM-11:00 PM; Sat 6:00 AM-11:00 PM; Sun 6:00 AM-10:00 PM","latitude":40.769344,"locality":"New York","longitude":-73.984656,"name":"Starbucks","neighborhood":["Midtown West","Midtown","Theatre District"],"postcode":"10023","region":"NY","tel":"(212) 489-6757","website":"http://www.starbucks.com"},{"address":"871 8th Ave","category_ids":[342],"category_labels":[["Social","Food and Dining","Cafes, Coffee and Tea Houses"]],"chain_id":"ab4c54c0-d68a-012e-5619-003048cad9da","chain_name":"Starbucks","country":"us","email":"info@starbucks.com","factual_id":"4c85c83c-7115-44f3-b5ea-196c1190c1cb","fax":"(303) 863-7747","hours":{"sunday":[["7:00","22:00"]],"saturday":[["7:00","23:59"]],"tuesday":[["5:30","22:30"]],"friday":[["5:30","23:59"]],"thursday":[["5:30","22:30"]],"wednesday":[["5:30","22:30"]],"monday":[["5:30","22:30"]]},"hours_display":"Mon-Thu 5:30 AM-10:30 PM; Fri 5:30 AM-11:59 PM; Sat 7:00 AM-11:59 PM; Sun 7:00 AM-10:00 PM","latitude":40.760471,"locality":"New York","longitude":-73.987157,"name":"Starbucks","neighborhood":["Midtown","Midtown West","Theatre District"],"postcode":"10019","region":"NY","tel":"(212) 246-7699","website":"http://www.starbucks.com"},{"address":"731 Lexington Ave","address_extended":"Frnt 2","category_ids":[342],"category_labels":[["Social","Food and Dining","Cafes, Coffee and Tea Houses"]],"chain_id":"ab4c54c0-d68a-012e-5619-003048cad9da","chain_name":"Starbucks","country":"us","email":"info@starbucks.com","factual_id":"f9cc9b18-a622-41bd-8c65-c950799df76e","hours":{"sunday":[["6:00","21:00"]],"saturday":[["6:00","21:00"]],"tuesday":[["6:00","21:00"]],"friday":[["6:00","21:00"]],"thursday":[["6:00","21:00"]],"wednesday":[["6:00","21:00"]],"monday":[["6:00","21:00"]]},"hours_display":"Open Daily 6:00 AM-9:00 PM","latitude":40.761572,"locality":"New York","longitude":-73.967907,"name":"Starbucks","neighborhood":["East Side","Lenox Hill","Turtle Bay"],"postcode":"10022","region":"NY","tel":"(212) 644-0692","website":"http://www.starbucks.com"},{"address":"4 W 21st St","category_ids":[342],"category_labels":[["Social","Food and Dining","Cafes, Coffee and Tea Houses"]],"chain_id":"ab4c54c0-d68a-012e-5619-003048cad9da","chain_name":"Starbucks","country":"us","email":"info@starbucks.com","factual_id":"5cfd302f-4de0-4c59-be86-9a93c75ccabe","hours":{"sunday":[["7:00","21:00"]],"saturday":[["7:00","21:00"]],"tuesday":[["6:00","21:30"]],"friday":[["6:00","21:30"]],"thursday":[["6:00","21:30"]],"wednesday":[["6:00","21:30"]],"monday":[["6:00","21:30"]]},"hours_display":"Mon-Fri 6:00 AM-9:30 PM; Sat-Sun 7:00 AM-9:00 PM","latitude":40.740492,"locality":"New York","longitude":-73.991306,"name":"Starbucks","neighborhood":["Midtown","Midtown South","Flatiron District"],"postcode":"10010","region":"NY","tel":"(646) 336-6583","website":"http://www.starbucks.com"},{"address":"1700 Broadway","address_extended":"Frnt 5","category_ids":[342],"category_labels":[["Social","Food and Dining","Cafes, Coffee and Tea Houses"]],"chain_id":"ab4c54c0-d68a-012e-5619-003048cad9da","chain_name":"Starbucks","country":"us","factual_id":"3fd9662f-6764-4a28-89a3-e0e0165e764e","fax":"(801) 322-8824","hours":{"sunday":[["6:00","22:00"]],"saturday":[["6:00","22:30"]],"tuesday":[["6:00","22:30"]],"friday":[["6:00","22:30"]],"thursday":[["6:00","22:30"]],"wednesday":[["6:00","22:30"]],"monday":[["6:00","22:30"]]},"hours_display":"Mon-Sat 6:00 AM-10:30 PM; Sun 6:00 AM-10:00 PM","latitude":40.764075,"locality":"New York","longitude":-73.982086,"name":"Starbucks","neighborhood":["Theatre District","West Side","Midtown West"],"postcode":"10019","region":"NY","tel":"(212) 245-0761","website":"http://www.starbucks.com"},{"address":"124 8th Ave","category_ids":[342],"category_labels":[["Social","Food and Dining","Cafes, Coffee and Tea Houses"]],"chain_id":"ab4c54c0-d68a-012e-5619-003048cad9da","chain_name":"Starbucks","country":"us","email":"info@starbucks.com","factual_id":"f1313e36-0936-415f-b940-cabc9a5cde60","fax":"(804) 232-6774","hours":{"sunday":[["6:00","22:00"]],"saturday":[["6:00","22:00"]],"tuesday":[["5:30","22:00"]],"friday":[["5:30","22:00"]],"thursday":[["5:30","22:00"]],"wednesday":[["5:30","22:00"]],"monday":[["5:30","22:00"]]},"hours_display":"Mon-Fri 5:30 AM-10:00 PM; Sat-Sun 6:00 AM-10:00 PM","latitude":40.74099,"locality":"New York","longitude":-74.001674,"name":"Starbucks","neighborhood":["Downtown","West Village","Meat Packing District"],"postcode":"10011","region":"NY","tel":"(212) 462-2020","website":"http://www.starbucks.com"},{"address":"471 Broadway","address_extended":"Frnt A","category_ids":[342],"category_labels":[["Social","Food and Dining","Cafes, Coffee and Tea Houses"]],"chain_id":"ab4c54c0-d68a-012e-5619-003048cad9da","chain_name":"Starbucks","country":"us","email":"info@starbucks.com","factual_id":"df8b62dd-1ccf-4d12-a29b-88a29e77583c","hours":{"sunday":[["7:30","21:00"]],"saturday":[["7:00","21:30"]],"tuesday":[["6:30","21:30"]],"friday":[["6:00","21:30"]],"thursday":[["6:30","21:30"]],"wednesday":[["6:30","21:30"]],"monday":[["6:30","21:30"]]},"hours_display":"Mon-Thu 6:30 AM-9:30 PM; Fri 6:00 AM-9:30 PM; Sat 7:00 AM-9:30 PM; Sun 7:30 AM-9:00 PM","latitude":40.721258,"locality":"New York","longitude":-74.000566,"name":"Starbucks","neighborhood":["Downtown","Chinatown","Lower Manhattan"],"postcode":"10013","region":"NY","tel":"(212) 219-8787","website":"http://www.starbucks.com"},{"address":"300 W 23rd St","address_extended":"Frnt 1","category_ids":[342],"category_labels":[["Social","Food and Dining","Cafes, Coffee and Tea Houses"]],"chain_id":"ab4c54c0-d68a-012e-5619-003048cad9da","chain_name":"Starbucks","country":"us","email":"info@starbucks.com","factual_id":"ab405259-252a-4f79-a80e-e20e2ec038e2","fax":"(801) 322-8824","hours":{"sunday":[["6:00","23:00"]],"saturday":[["6:00","12:00"]],"tuesday":[["5:30","23:00"]],"friday":[["5:30","12:00"]],"thursday":[["5:30","23:00"]],"wednesday":[["5:30","23:00"]],"monday":[["5:30","23:00"]]},"hours_display":"Mon-Thu 5:30 AM-11:00 PM; Fri 5:30 AM-12:00 PM; Sat 6:00 AM-12:00 PM; Sun 6:00 AM-11:00 PM","latitude":40.7452,"locality":"New York","longitude":-73.998913,"name":"Starbucks","neighborhood":["Garment District","West Village","Chelsea"],"postcode":"10011","region":"NY","tel":"(646) 638-1571","website":"http://www.starbucks.com"},{"address":"261 5th Ave","category_ids":[342],"category_labels":[["Social","Food and Dining","Cafes, Coffee and Tea Houses"]],"chain_id":"ab4c54c0-d68a-012e-5619-003048cad9da","chain_name":"Starbucks","country":"us","factual_id":"9f04f1e1-e7fe-4283-8e13-174671cb0711","fax":"(303) 863-7747","hours":{"sunday":[["7:00","20:00"]],"saturday":[["7:00","20:00"]],"tuesday":[["6:00","20:30"]],"friday":[["6:00","20:30"]],"thursday":[["6:00","20:30"]],"wednesday":[["6:00","20:30"]],"monday":[["6:00","20:30"]]},"hours_display":"Mon-Fri 6:00 AM-8:30 PM; Sat-Sun 7:00 AM-8:00 PM","latitude":40.744986,"locality":"New York","longitude":-73.986796,"name":"Starbucks","neighborhood":["Midtown","Midtown South","Flatiron District"],"postcode":"10016","region":"NY","tel":"(212) 779-1557","website":"http://www.starbucks.com"},{"address":"510 Avenue of the Americas","address_extended":"Frnt 5","category_ids":[342],"category_labels":[["Social","Food and Dining","Cafes, Coffee and Tea Houses"]],"chain_id":"ab4c54c0-d68a-012e-5619-003048cad9da","chain_name":"Starbucks","country":"us","factual_id":"f5cf3af6-6d7e-4d44-b96f-4c79607354fe","fax":"(617) 484-0696","hours":{"sunday":[["6:00","23:00"]],"saturday":[["6:00","23:59"]],"tuesday":[["5:30","23:00"]],"friday":[["5:30","23:59"]],"thursday":[["5:30","23:00"]],"wednesday":[["5:30","23:00"]],"monday":[["5:30","23:00"]]},"hours_display":"Mon-Thu 5:30 AM-11:00 PM; Fri 5:30 AM-11:59 PM; Sat 6:00 AM-11:59 PM; Sun 6:00 AM-11:00 PM","latitude":40.737001,"locality":"New York","longitude":-73.996639,"name":"Starbucks","neighborhood":["Midtown","Union Square","NoHo"],"postcode":"10011","region":"NY","tel":"(212) 242-5981","website":"http://www.starbucks.com"},{"address":"1021 3rd Ave","category_ids":[342],"category_labels":[["Social","Food and Dining","Cafes, Coffee and Tea Houses"]],"chain_id":"ab4c54c0-d68a-012e-5619-003048cad9da","chain_name":"Starbucks","country":"us","email":"info@starbucks.com","factual_id":"7be518c0-1e18-012f-0643-0030487f54d8","hours":{"sunday":[["7:00","22:00"]],"saturday":[["6:30","23:00"]],"tuesday":[["5:30","23:00"]],"friday":[["5:30","23:00"]],"thursday":[["5:30","23:00"]],"wednesday":[["5:30","23:00"]],"monday":[["5:30","23:00"]]},"hours_display":"Mon-Fri 5:30 AM-11:00 PM; Sat 6:30 AM-11:00 PM; Sun 7:00 AM-10:00 PM","latitude":40.762462,"locality":"New York","longitude":-73.965664,"name":"Starbucks","neighborhood":["Sutton Place","Uptown","Lenox Hill"],"postcode":"10065","region":"NY","tel":"(212) 486-6764","website":"http://www.starbucks.com"}]